[
    {
        "nome": "Zé artesão",
        "latitude": -8.04865570295095,  
        "longitude": -34.88920453168447,
        "endereco": "R. Maj. Codeceira, 74 - Santo Amaro, Recife - PE, 50100-070"
    },
    {
        "nome": "Tricotando",
        "latitude": -8.03934228576396,  
        "longitude": -34.87659974075715,
        "endereco": "Av. Gov. Agamenon Magalhães, 191 - Santo Amaro, Recife - PE, 50110-000"
    },
    {
        "nome": "Ponto e Agulha",
        "latitude": -8.051533227383414,  
        "longitude": -34.877742255103996,
        "endereco": "R. Araripina, 200 - Santo Amaro, Recife - PE, 50040-170"
    },
    {
        "nome": "TransBordando",
        "latitude": -8.038752854970168,   
        "longitude": -34.87456191135341,
        "endereco": "R. Campos Floridos - Santo Amaro, Recife - PE, 50110-515"
    },
    {
        "nome": "CeramiKay",
        "latitude": -8.041286244376117,    
        "longitude": -34.873031780745464,
        "endereco": "Av. Cruz Cabugá, 1597 - Santo Amaro, Recife - PE, 50040-000"
    },
    {
        "nome": "CinZelando",
        "latitude": -8.064044543239572,     
        "longitude": -34.876776566180965,
        "endereco": "R. do Imperador Pedro II, 34 - São José, Recife - PE, 50010-240"
    }
]